{
  "0817800": { "lat": -23.95, "lng": -46.31, "name": "Santos", "type": "maritimo", "uf": "SP" },
  "0817600": { "lat": -23.43, "lng": -46.47, "name": "Guarulhos", "type": "aereo", "uf": "SP" },
  "0817700": { "lat": -23.01, "lng": -47.13, "name": "Viracopos", "type": "aereo", "uf": "SP" },
  "0817100": { "lat": -23.55, "lng": -46.63, "name": "São Paulo", "type": "aereo", "uf": "SP" },
  "0927900": { "lat": -26.24, "lng": -53.65, "name": "Dionísio Cerqueira", "type": "rodoviario", "uf": "SC" },
  "0917500": { "lat": -25.55, "lng": -54.59, "name": "Foz do Iguaçu", "type": "rodoviario", "uf": "PR" },
  "1010252": { "lat": -32.56, "lng": -53.38, "name": "Jaguarão", "type": "rodoviario", "uf": "RS" },
  "0717600": { "lat": -22.90, "lng": -43.21, "name": "Rio de Janeiro", "type": "maritimo", "uf": "RJ" },
  "0717500": { "lat": -22.81, "lng": -43.25, "name": "Galeão", "type": "aereo", "uf": "RJ" },
  "0810300": { "lat": -27.60, "lng": -48.55, "name": "Florianópolis", "type": "aereo", "uf": "SC" },
  "0810500": { "lat": -26.47, "lng": -48.95, "name": "Itajaí", "type": "maritimo", "uf": "SC" },
  "0810600": { "lat": -26.30, "lng": -48.84, "name": "São Francisco do Sul", "type": "maritimo", "uf": "SC" },
  "0818400": { "lat": -25.50, "lng": -48.52, "name": "Paranaguá", "type": "maritimo", "uf": "PR" },
  "0818300": { "lat": -25.53, "lng": -49.17, "name": "Curitiba", "type": "aereo", "uf": "PR" },
  "0618800": { "lat": -12.91, "lng": -38.36, "name": "Salvador", "type": "maritimo", "uf": "BA" },
  "0518700": { "lat": -3.14, "lng": -59.99, "name": "Manaus", "type": "maritimo", "uf": "AM" },
  "0518600": { "lat": -3.04, "lng": -60.05, "name": "Eduardo Gomes", "type": "aereo", "uf": "AM" },
  "0417700": { "lat": -8.06, "lng": -34.87, "name": "Suape", "type": "maritimo", "uf": "PE" },
  "0417800": { "lat": -8.13, "lng": -34.92, "name": "Recife", "type": "aereo", "uf": "PE" },
  "0217800": { "lat": -3.73, "lng": -38.52, "name": "Fortaleza", "type": "aereo", "uf": "CE" },
  "0217900": { "lat": -3.69, "lng": -38.55, "name": "Pecém", "type": "maritimo", "uf": "CE" },
  "0317600": { "lat": -12.68, "lng": -38.32, "name": "Aratu", "type": "maritimo", "uf": "BA" },
  "0617500": { "lat": -12.91, "lng": -38.32, "name": "Salvador Aero", "type": "aereo", "uf": "BA" },
  "1117800": { "lat": -30.03, "lng": -51.23, "name": "Porto Alegre", "type": "maritimo", "uf": "RS" },
  "1117600": { "lat": -29.99, "lng": -51.17, "name": "Porto Alegre Aero", "type": "aereo", "uf": "RS" },
  "1015100": { "lat": -33.69, "lng": -53.43, "name": "Chuí", "type": "rodoviario", "uf": "RS" },
  "1015200": { "lat": -32.14, "lng": -52.10, "name": "Aceguá", "type": "rodoviario", "uf": "RS" },
  "1015300": { "lat": -31.34, "lng": -54.12, "name": "Livramento", "type": "rodoviario", "uf": "RS" },
  "1015400": { "lat": -30.85, "lng": -55.28, "name": "Quaraí", "type": "rodoviario", "uf": "RS" },
  "1015500": { "lat": -27.79, "lng": -55.06, "name": "Santo Antônio das Missões", "type": "rodoviario", "uf": "RS" },
  "0917800": { "lat": -25.51, "lng": -54.59, "name": "Cataratas", "type": "aereo", "uf": "PR" },
  "0917600": { "lat": -25.40, "lng": -49.27, "name": "Foz do Iguaçu Rod.", "type": "rodoviario", "uf": "PR" },
  "0617500": { "lat": -12.91, "lng": -38.32, "name": "Salvador Aero", "type": "aereo", "uf": "BA" },
  "0217600": { "lat": -3.73, "lng": -38.52, "name": "Fortaleza Aero", "type": "aereo", "uf": "CE" },
  "0816000": { "lat": -23.12, "lng": -45.75, "name": "São José dos Campos", "type": "aereo", "uf": "SP" },
  "0816700": { "lat": -22.32, "lng": -49.06, "name": "Bauru", "type": "aereo", "uf": "SP" },
  "0816500": { "lat": -20.46, "lng": -54.62, "name": "Corumbá", "type": "rodoviario", "uf": "MS" },
  "0816600": { "lat": -19.01, "lng": -57.66, "name": "Porto Murtinho", "type": "rodoviario", "uf": "MS" },
  "0217700": { "lat": -3.73, "lng": -38.52, "name": "Fortaleza Mar.", "type": "maritimo", "uf": "CE" },
  "0417600": { "lat": -8.06, "lng": -34.87, "name": "Recife Mar.", "type": "maritimo", "uf": "PE" },
  "0617600": { "lat": -12.91, "lng": -38.36, "name": "Salvador Mar.", "type": "maritimo", "uf": "BA" },
  "0717700": { "lat": -22.90, "lng": -43.21, "name": "Rio Mar.", "type": "maritimo", "uf": "RJ" },
  "0818200": { "lat": -25.50, "lng": -48.52, "name": "Paranaguá", "type": "maritimo", "uf": "PR" },
  "1011000": { "lat": -30.03, "lng": -51.23, "name": "Porto Alegre Mar.", "type": "maritimo", "uf": "RS" },
  "1117900": { "lat": -29.85, "lng": -51.05, "name": "Eliseu", "type": "maritimo", "uf": "RS" },
  "1117700": { "lat": -29.97, "lng": -51.18, "name": "Canoas", "type": "rodoviario", "uf": "RS" },
  "1317600": { "lat": -19.85, "lng": -43.95, "name": "Confins", "type": "aereo", "uf": "MG" },
  "1317700": { "lat": -19.92, "lng": -43.94, "name": "Belo Horizonte", "type": "aereo", "uf": "MG" },
  "1317800": { "lat": -19.85, "lng": -43.95, "name": "Confins Cargas", "type": "aereo", "uf": "MG" },
  "1417600": { "lat": -16.67, "lng": -49.27, "name": "Goiânia", "type": "aereo", "uf": "GO" },
  "1517600": { "lat": -15.87, "lng": -47.92, "name": "Brasília", "type": "aereo", "uf": "DF" },
  "1617600": { "lat": -2.53, "lng": -44.31, "name": "São Luís", "type": "maritimo", "uf": "MA" },
  "1617700": { "lat": -2.53, "lng": -44.31, "name": "Itaqui", "type": "maritimo", "uf": "MA" },
  "1717600": { "lat": -10.19, "lng": -48.33, "name": "Palmas", "type": "aereo", "uf": "TO" },
  "1817600": { "lat": -9.66, "lng": -35.73, "name": "Maceió", "type": "maritimo", "uf": "AL" },
  "1917600": { "lat": -11.01, "lng": -37.07, "name": "Aracaju", "type": "maritimo", "uf": "SE" },
  "2017600": { "lat": -7.23, "lng": -35.88, "name": "Cabedelo", "type": "maritimo", "uf": "PB" },
  "2117600": { "lat": -5.79, "lng": -35.21, "name": "Natal", "type": "aereo", "uf": "RN" },
  "2217600": { "lat": -0.03, "lng": -51.07, "name": "Macapá", "type": "maritimo", "uf": "AP" },
  "2317600": { "lat": -1.46, "lng": -48.49, "name": "Belém", "type": "maritimo", "uf": "PA" },
  "2317700": { "lat": -1.38, "lng": -48.48, "name": "Val de Cans", "type": "aereo", "uf": "PA" },
  "2417600": { "lat": -2.43, "lng": -44.26, "name": "São Luís Aero", "type": "aereo", "uf": "MA" },
  "2517600": { "lat": -10.91, "lng": -37.07, "name": "Aracaju Aero", "type": "aereo", "uf": "SE" },
  "2617600": { "lat": -8.06, "lng": -34.87, "name": "Suape Aero", "type": "aereo", "uf": "PE" },
  "2717600": { "lat": -9.66, "lng": -35.73, "name": "Maceió Aero", "type": "aereo", "uf": "AL" },
  "2817600": { "lat": -7.23, "lng": -35.88, "name": "Cabedelo Aero", "type": "aereo", "uf": "PB" },
  "2917600": { "lat": -5.79, "lng": -35.21, "name": "Natal Aero", "type": "aereo", "uf": "RN" },
  "3017600": { "lat": -16.35, "lng": -39.58, "name": "Porto Seguro", "type": "aereo", "uf": "BA" },
  "3117600": { "lat": -19.85, "lng": -43.95, "name": "Confins Int.", "type": "aereo", "uf": "MG" },
  "3217600": { "lat": -20.46, "lng": -54.62, "name": "Corumbá Int.", "type": "rodoviario", "uf": "MS" },
  "3317600": { "lat": -8.76, "lng": -63.90, "name": "Porto Velho", "type": "rodoviario", "uf": "RO" },
  "3417600": { "lat": -10.18, "lng": -67.81, "name": "Rio Branco", "type": "rodoviario", "uf": "AC" },
  "3517600": { "lat": -0.83, "lng": -47.92, "name": "Macapá Aero", "type": "aereo", "uf": "AP" },
  "3617600": { "lat": -1.46, "lng": -48.49, "name": "Belém Aero", "type": "aereo", "uf": "PA" },
  "3717600": { "lat": -2.53, "lng": -44.31, "name": "São Luís Mar.", "type": "maritimo", "uf": "MA" },
  "3817600": { "lat": -3.73, "lng": -38.52, "name": "Mucuripe", "type": "maritimo", "uf": "CE" },
  "3917600": { "lat": -8.06, "lng": -34.87, "name": "Suape Mar.", "type": "maritimo", "uf": "PE" },
  "4017600": { "lat": -12.91, "lng": -38.36, "name": "Aratu Mar.", "type": "maritimo", "uf": "BA" },
  "4117600": { "lat": -22.90, "lng": -43.21, "name": "Rio Int.", "type": "maritimo", "uf": "RJ" },
  "4217600": { "lat": -23.95, "lng": -46.31, "name": "Santos Int.", "type": "maritimo", "uf": "SP" },
  "4317600": { "lat": -25.50, "lng": -48.52, "name": "Paranaguá Int.", "type": "maritimo", "uf": "PR" },
  "4417600": { "lat": -26.47, "lng": -48.95, "name": "Itajaí Int.", "type": "maritimo", "uf": "SC" },
  "4517600": { "lat": -30.03, "lng": -51.23, "name": "Porto Alegre Int.", "type": "maritimo", "uf": "RS" }
}
